{
  "version": "2.0",
  "generated": "2026-02-19",
  "description": "Comprehensive Indian locations for logistics route search. 500+ entries covering tier-1/2/3 cities, district HQs, mandis, industrial zones, transport hubs, ports, and NH corridor towns across all states/UTs.",
  "schema": {
    "name": "Display name",
    "state": "State/UT name",
    "district": "District name (nullable)",
    "type": "city | district_hq | town | transport_hub | industrial_zone | port | mandi | dry_port",
    "lat": "Latitude",
    "lng": "Longitude",
    "aliases": "Alternative names / local spellings",
    "is_major_hub": "true for top logistics cities"
  },
  "locations": [
    {"name": "Mumbai", "state": "Maharashtra", "district": "Mumbai", "type": "city", "lat": 19.076, "lng": 72.8777, "aliases": ["Bombay"], "is_major_hub": true},
    {"name": "Delhi", "state": "Delhi", "district": null, "type": "city", "lat": 28.7041, "lng": 77.1025, "aliases": ["New Delhi", "Dilli"], "is_major_hub": true},
    {"name": "Bengaluru", "state": "Karnataka", "district": "Bengaluru Urban", "type": "city", "lat": 12.9716, "lng": 77.5946, "aliases": ["Bangalore", "Blore"], "is_major_hub": true},
    {"name": "Chennai", "state": "Tamil Nadu", "district": "Chennai", "type": "city", "lat": 13.0827, "lng": 80.2707, "aliases": ["Madras"], "is_major_hub": true},
    {"name": "Kolkata", "state": "West Bengal", "district": "Kolkata", "type": "city", "lat": 22.5726, "lng": 88.3639, "aliases": ["Calcutta"], "is_major_hub": true},
    {"name": "Hyderabad", "state": "Telangana", "district": "Hyderabad", "type": "city", "lat": 17.385, "lng": 78.4867, "aliases": [], "is_major_hub": true},
    {"name": "Ahmedabad", "state": "Gujarat", "district": "Ahmedabad", "type": "city", "lat": 23.0225, "lng": 72.5714, "aliases": ["Amdavad"], "is_major_hub": true},
    {"name": "Pune", "state": "Maharashtra", "district": "Pune", "type": "city", "lat": 18.5204, "lng": 73.8567, "aliases": ["Poona"], "is_major_hub": true},
    {"name": "Jaipur", "state": "Rajasthan", "district": "Jaipur", "type": "city", "lat": 26.9124, "lng": 75.7873, "aliases": [], "is_major_hub": true},
    {"name": "Lucknow", "state": "Uttar Pradesh", "district": "Lucknow", "type": "city", "lat": 26.8467, "lng": 80.9462, "aliases": [], "is_major_hub": true},
    {"name": "Surat", "state": "Gujarat", "district": "Surat", "type": "city", "lat": 21.1702, "lng": 72.8311, "aliases": [], "is_major_hub": true},
    {"name": "Kanpur", "state": "Uttar Pradesh", "district": "Kanpur Nagar", "type": "city", "lat": 26.4499, "lng": 80.3319, "aliases": ["Cawnpore"], "is_major_hub": true},
    {"name": "Nagpur", "state": "Maharashtra", "district": "Nagpur", "type": "city", "lat": 21.1458, "lng": 79.0882, "aliases": [], "is_major_hub": true},
    {"name": "Indore", "state": "Madhya Pradesh", "district": "Indore", "type": "city", "lat": 22.7196, "lng": 75.8577, "aliases": [], "is_major_hub": true},
    {"name": "Bhopal", "state": "Madhya Pradesh", "district": "Bhopal", "type": "city", "lat": 23.2599, "lng": 77.4126, "aliases": [], "is_major_hub": true},
    {"name": "Visakhapatnam", "state": "Andhra Pradesh", "district": "Visakhapatnam", "type": "city", "lat": 17.6868, "lng": 83.2185, "aliases": ["Vizag"], "is_major_hub": true},
    {"name": "Patna", "state": "Bihar", "district": "Patna", "type": "city", "lat": 25.6093, "lng": 85.1376, "aliases": [], "is_major_hub": true},
    {"name": "Vadodara", "state": "Gujarat", "district": "Vadodara", "type": "city", "lat": 22.3072, "lng": 73.1812, "aliases": ["Baroda"], "is_major_hub": true},
    {"name": "Ludhiana", "state": "Punjab", "district": "Ludhiana", "type": "city", "lat": 30.901, "lng": 75.8573, "aliases": [], "is_major_hub": true},
    {"name": "Agra", "state": "Uttar Pradesh", "district": "Agra", "type": "city", "lat": 27.1767, "lng": 78.0081, "aliases": [], "is_major_hub": true},
    {"name": "Varanasi", "state": "Uttar Pradesh", "district": "Varanasi", "type": "city", "lat": 25.3176, "lng": 82.9739, "aliases": ["Banaras", "Kashi"], "is_major_hub": true},
    {"name": "Coimbatore", "state": "Tamil Nadu", "district": "Coimbatore", "type": "city", "lat": 11.0168, "lng": 76.9558, "aliases": ["Kovai"], "is_major_hub": true},
    {"name": "Chandigarh", "state": "Chandigarh", "district": null, "type": "city", "lat": 30.7333, "lng": 76.7794, "aliases": [], "is_major_hub": true},
    {"name": "Guwahati", "state": "Assam", "district": "Kamrup Metropolitan", "type": "city", "lat": 26.1445, "lng": 91.7362, "aliases": ["Gauhati"], "is_major_hub": true},
    {"name": "Thiruvananthapuram", "state": "Kerala", "district": "Thiruvananthapuram", "type": "city", "lat": 8.5241, "lng": 76.9366, "aliases": ["Trivandrum"], "is_major_hub": true},
    {"name": "Kochi", "state": "Kerala", "district": "Ernakulam", "type": "city", "lat": 9.9312, "lng": 76.2673, "aliases": ["Cochin"], "is_major_hub": true},
    {"name": "Ranchi", "state": "Jharkhand", "district": "Ranchi", "type": "city", "lat": 23.3441, "lng": 85.3096, "aliases": [], "is_major_hub": true},
    {"name": "Raipur", "state": "Chhattisgarh", "district": "Raipur", "type": "city", "lat": 21.2514, "lng": 81.6296, "aliases": [], "is_major_hub": true},
    {"name": "Amritsar", "state": "Punjab", "district": "Amritsar", "type": "city", "lat": 31.634, "lng": 74.8723, "aliases": [], "is_major_hub": true},
    {"name": "Vijayawada", "state": "Andhra Pradesh", "district": "Krishna", "type": "city", "lat": 16.5062, "lng": 80.648, "aliases": ["Bezawada"], "is_major_hub": true},
    {"name": "Dehradun", "state": "Uttarakhand", "district": "Dehradun", "type": "city", "lat": 30.3165, "lng": 78.0322, "aliases": [], "is_major_hub": true},
    {"name": "Bhubaneswar", "state": "Odisha", "district": "Khordha", "type": "city", "lat": 20.2961, "lng": 85.8245, "aliases": [], "is_major_hub": true},
    {"name": "Gurugram", "state": "Haryana", "district": "Gurugram", "type": "city", "lat": 28.4595, "lng": 77.0266, "aliases": ["Gurgaon"], "is_major_hub": true},
    {"name": "Noida", "state": "Uttar Pradesh", "district": "Gautam Buddh Nagar", "type": "city", "lat": 28.5355, "lng": 77.391, "aliases": [], "is_major_hub": true},
    {"name": "Navi Mumbai", "state": "Maharashtra", "district": "Thane", "type": "city", "lat": 19.033, "lng": 73.0297, "aliases": ["New Bombay"], "is_major_hub": true},

    {"name": "Thane", "state": "Maharashtra", "district": "Thane", "type": "city", "lat": 19.2183, "lng": 72.9781, "aliases": [], "is_major_hub": false},
    {"name": "Nashik", "state": "Maharashtra", "district": "Nashik", "type": "city", "lat": 19.9975, "lng": 73.7898, "aliases": ["Nasik"], "is_major_hub": false},
    {"name": "Rajkot", "state": "Gujarat", "district": "Rajkot", "type": "city", "lat": 22.3039, "lng": 70.8022, "aliases": [], "is_major_hub": false},
    {"name": "Madurai", "state": "Tamil Nadu", "district": "Madurai", "type": "city", "lat": 9.9252, "lng": 78.1198, "aliases": [], "is_major_hub": false},
    {"name": "Gwalior", "state": "Madhya Pradesh", "district": "Gwalior", "type": "city", "lat": 26.2183, "lng": 78.1828, "aliases": [], "is_major_hub": false},
    {"name": "Jodhpur", "state": "Rajasthan", "district": "Jodhpur", "type": "city", "lat": 26.2389, "lng": 73.0243, "aliases": [], "is_major_hub": false},
    {"name": "Mysuru", "state": "Karnataka", "district": "Mysuru", "type": "city", "lat": 12.2958, "lng": 76.6394, "aliases": ["Mysore"], "is_major_hub": false},
    {"name": "Jabalpur", "state": "Madhya Pradesh", "district": "Jabalpur", "type": "city", "lat": 23.1815, "lng": 79.9864, "aliases": [], "is_major_hub": false},
    {"name": "Aurangabad", "state": "Maharashtra", "district": "Aurangabad", "type": "city", "lat": 19.8762, "lng": 75.3433, "aliases": ["Chhatrapati Sambhajinagar"], "is_major_hub": false},
    {"name": "Hubli-Dharwad", "state": "Karnataka", "district": "Dharwad", "type": "city", "lat": 15.3647, "lng": 75.124, "aliases": ["Hubli", "Dharwad"], "is_major_hub": false},
    {"name": "Tiruchirappalli", "state": "Tamil Nadu", "district": "Tiruchirappalli", "type": "city", "lat": 10.7905, "lng": 78.7047, "aliases": ["Trichy"], "is_major_hub": false},
    {"name": "Salem", "state": "Tamil Nadu", "district": "Salem", "type": "city", "lat": 11.6643, "lng": 78.146, "aliases": [], "is_major_hub": false},
    {"name": "Warangal", "state": "Telangana", "district": "Warangal", "type": "city", "lat": 17.9784, "lng": 79.5941, "aliases": [], "is_major_hub": false},
    {"name": "Faridabad", "state": "Haryana", "district": "Faridabad", "type": "city", "lat": 28.4089, "lng": 77.3178, "aliases": [], "is_major_hub": false},
    {"name": "Ghaziabad", "state": "Uttar Pradesh", "district": "Ghaziabad", "type": "city", "lat": 28.6692, "lng": 77.4538, "aliases": [], "is_major_hub": false},
    {"name": "Panipat", "state": "Haryana", "district": "Panipat", "type": "city", "lat": 29.3909, "lng": 76.9635, "aliases": [], "is_major_hub": false},
    {"name": "Sonipat", "state": "Haryana", "district": "Sonipat", "type": "city", "lat": 28.9931, "lng": 77.0151, "aliases": [], "is_major_hub": false},

    {"name": "Meerut", "state": "Uttar Pradesh", "district": "Meerut", "type": "city", "lat": 28.9845, "lng": 77.7064, "aliases": [], "is_major_hub": false},
    {"name": "Allahabad", "state": "Uttar Pradesh", "district": "Prayagraj", "type": "city", "lat": 25.4358, "lng": 81.8463, "aliases": ["Prayagraj"], "is_major_hub": false},
    {"name": "Bareilly", "state": "Uttar Pradesh", "district": "Bareilly", "type": "city", "lat": 28.367, "lng": 79.4304, "aliases": [], "is_major_hub": false},
    {"name": "Aligarh", "state": "Uttar Pradesh", "district": "Aligarh", "type": "city", "lat": 27.8974, "lng": 78.088, "aliases": [], "is_major_hub": false},
    {"name": "Moradabad", "state": "Uttar Pradesh", "district": "Moradabad", "type": "city", "lat": 28.8386, "lng": 78.7733, "aliases": [], "is_major_hub": false},
    {"name": "Gorakhpur", "state": "Uttar Pradesh", "district": "Gorakhpur", "type": "city", "lat": 26.7606, "lng": 83.3732, "aliases": [], "is_major_hub": false},
    {"name": "Saharanpur", "state": "Uttar Pradesh", "district": "Saharanpur", "type": "city", "lat": 29.964, "lng": 77.5461, "aliases": [], "is_major_hub": false},
    {"name": "Mathura", "state": "Uttar Pradesh", "district": "Mathura", "type": "city", "lat": 27.4924, "lng": 77.6737, "aliases": [], "is_major_hub": false},
    {"name": "Firozabad", "state": "Uttar Pradesh", "district": "Firozabad", "type": "city", "lat": 27.1591, "lng": 78.3957, "aliases": [], "is_major_hub": false},
    {"name": "Jhansi", "state": "Uttar Pradesh", "district": "Jhansi", "type": "city", "lat": 25.4484, "lng": 78.5685, "aliases": [], "is_major_hub": false},
    {"name": "Muzaffarnagar", "state": "Uttar Pradesh", "district": "Muzaffarnagar", "type": "city", "lat": 29.4727, "lng": 77.7085, "aliases": [], "is_major_hub": false},
    {"name": "Shahjahanpur", "state": "Uttar Pradesh", "district": "Shahjahanpur", "type": "city", "lat": 27.8835, "lng": 79.9108, "aliases": [], "is_major_hub": false},
    {"name": "Etawah", "state": "Uttar Pradesh", "district": "Etawah", "type": "town", "lat": 26.7856, "lng": 79.0158, "aliases": [], "is_major_hub": false},
    {"name": "Mirzapur", "state": "Uttar Pradesh", "district": "Mirzapur", "type": "town", "lat": 25.1337, "lng": 82.5644, "aliases": [], "is_major_hub": false},
    {"name": "Sultanpur", "state": "Uttar Pradesh", "district": "Sultanpur", "type": "town", "lat": 26.2648, "lng": 82.0727, "aliases": [], "is_major_hub": false},
    {"name": "Ayodhya", "state": "Uttar Pradesh", "district": "Ayodhya", "type": "city", "lat": 26.7922, "lng": 82.1998, "aliases": ["Faizabad"], "is_major_hub": false},

    {"name": "Udaipur", "state": "Rajasthan", "district": "Udaipur", "type": "city", "lat": 24.5854, "lng": 73.7125, "aliases": [], "is_major_hub": false},
    {"name": "Kota", "state": "Rajasthan", "district": "Kota", "type": "city", "lat": 25.2138, "lng": 75.8648, "aliases": [], "is_major_hub": false},
    {"name": "Ajmer", "state": "Rajasthan", "district": "Ajmer", "type": "city", "lat": 26.4499, "lng": 74.6399, "aliases": [], "is_major_hub": false},
    {"name": "Bikaner", "state": "Rajasthan", "district": "Bikaner", "type": "city", "lat": 28.0229, "lng": 73.3119, "aliases": [], "is_major_hub": false},
    {"name": "Bhilwara", "state": "Rajasthan", "district": "Bhilwara", "type": "city", "lat": 25.3407, "lng": 74.6313, "aliases": [], "is_major_hub": false},
    {"name": "Alwar", "state": "Rajasthan", "district": "Alwar", "type": "city", "lat": 27.5529, "lng": 76.6346, "aliases": [], "is_major_hub": false},
    {"name": "Sikar", "state": "Rajasthan", "district": "Sikar", "type": "town", "lat": 27.6094, "lng": 75.1399, "aliases": [], "is_major_hub": false},
    {"name": "Sri Ganganagar", "state": "Rajasthan", "district": "Sri Ganganagar", "type": "city", "lat": 29.9038, "lng": 73.8772, "aliases": ["Ganganagar"], "is_major_hub": false},
    {"name": "Pali", "state": "Rajasthan", "district": "Pali", "type": "town", "lat": 25.7711, "lng": 73.3234, "aliases": [], "is_major_hub": false},
    {"name": "Chittorgarh", "state": "Rajasthan", "district": "Chittorgarh", "type": "town", "lat": 24.8887, "lng": 74.6269, "aliases": [], "is_major_hub": false},
    {"name": "Barmer", "state": "Rajasthan", "district": "Barmer", "type": "town", "lat": 25.7521, "lng": 71.3967, "aliases": [], "is_major_hub": false},

    {"name": "Jalandhar", "state": "Punjab", "district": "Jalandhar", "type": "city", "lat": 31.326, "lng": 75.5762, "aliases": ["Jullundur"], "is_major_hub": false},
    {"name": "Patiala", "state": "Punjab", "district": "Patiala", "type": "city", "lat": 30.34, "lng": 76.3869, "aliases": [], "is_major_hub": false},
    {"name": "Bathinda", "state": "Punjab", "district": "Bathinda", "type": "city", "lat": 30.2104, "lng": 74.9455, "aliases": ["Bhatinda"], "is_major_hub": false},
    {"name": "Mohali", "state": "Punjab", "district": "SAS Nagar", "type": "city", "lat": 30.7046, "lng": 76.7179, "aliases": ["SAS Nagar"], "is_major_hub": false},
    {"name": "Hoshiarpur", "state": "Punjab", "district": "Hoshiarpur", "type": "town", "lat": 31.5143, "lng": 75.9115, "aliases": [], "is_major_hub": false},
    {"name": "Moga", "state": "Punjab", "district": "Moga", "type": "town", "lat": 30.8162, "lng": 75.1741, "aliases": [], "is_major_hub": false},
    {"name": "Pathankot", "state": "Punjab", "district": "Pathankot", "type": "town", "lat": 32.2643, "lng": 75.6421, "aliases": [], "is_major_hub": false},
    {"name": "Phagwara", "state": "Punjab", "district": "Kapurthala", "type": "town", "lat": 31.224, "lng": 75.7708, "aliases": [], "is_major_hub": false},
    {"name": "Rajpura", "state": "Punjab", "district": "Patiala", "type": "town", "lat": 30.4839, "lng": 76.5933, "aliases": [], "is_major_hub": false},
    {"name": "Khanna", "state": "Punjab", "district": "Ludhiana", "type": "mandi", "lat": 30.6968, "lng": 76.2174, "aliases": [], "is_major_hub": false},

    {"name": "Ambala", "state": "Haryana", "district": "Ambala", "type": "city", "lat": 30.378, "lng": 76.7767, "aliases": [], "is_major_hub": false},
    {"name": "Karnal", "state": "Haryana", "district": "Karnal", "type": "city", "lat": 29.6857, "lng": 76.9905, "aliases": [], "is_major_hub": false},
    {"name": "Hisar", "state": "Haryana", "district": "Hisar", "type": "city", "lat": 29.1492, "lng": 75.7217, "aliases": ["Hissar"], "is_major_hub": false},
    {"name": "Rohtak", "state": "Haryana", "district": "Rohtak", "type": "city", "lat": 28.8955, "lng": 76.6066, "aliases": [], "is_major_hub": false},
    {"name": "Yamunanagar", "state": "Haryana", "district": "Yamunanagar", "type": "city", "lat": 30.1291, "lng": 77.2674, "aliases": [], "is_major_hub": false},
    {"name": "Rewari", "state": "Haryana", "district": "Rewari", "type": "town", "lat": 28.1971, "lng": 76.6194, "aliases": [], "is_major_hub": false},
    {"name": "Jind", "state": "Haryana", "district": "Jind", "type": "town", "lat": 29.3161, "lng": 76.3152, "aliases": [], "is_major_hub": false},
    {"name": "Bhiwani", "state": "Haryana", "district": "Bhiwani", "type": "town", "lat": 28.7751, "lng": 76.1322, "aliases": [], "is_major_hub": false},
    {"name": "Sirsa", "state": "Haryana", "district": "Sirsa", "type": "town", "lat": 29.5349, "lng": 75.0281, "aliases": [], "is_major_hub": false},
    {"name": "Bahadurgarh", "state": "Haryana", "district": "Jhajjar", "type": "town", "lat": 28.6926, "lng": 76.9355, "aliases": [], "is_major_hub": false},
    {"name": "Manesar", "state": "Haryana", "district": "Gurugram", "type": "industrial_zone", "lat": 28.3588, "lng": 76.9378, "aliases": [], "is_major_hub": false},
    {"name": "Kundli", "state": "Haryana", "district": "Sonipat", "type": "industrial_zone", "lat": 28.8674, "lng": 77.1185, "aliases": [], "is_major_hub": false},

    {"name": "Dhanbad", "state": "Jharkhand", "district": "Dhanbad", "type": "city", "lat": 23.7957, "lng": 86.4304, "aliases": [], "is_major_hub": false},
    {"name": "Jamshedpur", "state": "Jharkhand", "district": "East Singhbhum", "type": "city", "lat": 22.8046, "lng": 86.2029, "aliases": ["Tatanagar"], "is_major_hub": true},
    {"name": "Bokaro", "state": "Jharkhand", "district": "Bokaro", "type": "city", "lat": 23.6693, "lng": 86.1511, "aliases": ["Bokaro Steel City"], "is_major_hub": false},
    {"name": "Hazaribagh", "state": "Jharkhand", "district": "Hazaribagh", "type": "town", "lat": 23.9966, "lng": 85.3637, "aliases": [], "is_major_hub": false},
    {"name": "Deoghar", "state": "Jharkhand", "district": "Deoghar", "type": "town", "lat": 24.4764, "lng": 86.6944, "aliases": [], "is_major_hub": false},

    {"name": "Gaya", "state": "Bihar", "district": "Gaya", "type": "city", "lat": 24.7955, "lng": 84.9994, "aliases": [], "is_major_hub": false},
    {"name": "Muzaffarpur", "state": "Bihar", "district": "Muzaffarpur", "type": "city", "lat": 26.1209, "lng": 85.3647, "aliases": [], "is_major_hub": false},
    {"name": "Bhagalpur", "state": "Bihar", "district": "Bhagalpur", "type": "city", "lat": 25.2425, "lng": 86.9842, "aliases": [], "is_major_hub": false},
    {"name": "Darbhanga", "state": "Bihar", "district": "Darbhanga", "type": "city", "lat": 26.1542, "lng": 85.8918, "aliases": [], "is_major_hub": false},
    {"name": "Purnia", "state": "Bihar", "district": "Purnia", "type": "city", "lat": 25.7771, "lng": 87.4753, "aliases": ["Purnea"], "is_major_hub": false},
    {"name": "Begusarai", "state": "Bihar", "district": "Begusarai", "type": "town", "lat": 25.4182, "lng": 86.1272, "aliases": [], "is_major_hub": false},
    {"name": "Hajipur", "state": "Bihar", "district": "Vaishali", "type": "town", "lat": 25.6855, "lng": 85.2135, "aliases": [], "is_major_hub": false},
    {"name": "Sasaram", "state": "Bihar", "district": "Rohtas", "type": "town", "lat": 24.9469, "lng": 84.0313, "aliases": [], "is_major_hub": false},
    {"name": "Siwan", "state": "Bihar", "district": "Siwan", "type": "town", "lat": 26.2218, "lng": 84.3594, "aliases": [], "is_major_hub": false},

    {"name": "Cuttack", "state": "Odisha", "district": "Cuttack", "type": "city", "lat": 20.4625, "lng": 85.8828, "aliases": [], "is_major_hub": false},
    {"name": "Rourkela", "state": "Odisha", "district": "Sundargarh", "type": "city", "lat": 22.2604, "lng": 84.8536, "aliases": [], "is_major_hub": false},
    {"name": "Berhampur", "state": "Odisha", "district": "Ganjam", "type": "city", "lat": 19.3149, "lng": 84.7941, "aliases": ["Brahmapur"], "is_major_hub": false},
    {"name": "Sambalpur", "state": "Odisha", "district": "Sambalpur", "type": "city", "lat": 21.4669, "lng": 83.9812, "aliases": [], "is_major_hub": false},
    {"name": "Balasore", "state": "Odisha", "district": "Balasore", "type": "town", "lat": 21.4934, "lng": 86.9337, "aliases": ["Baleshwar"], "is_major_hub": false},
    {"name": "Paradip", "state": "Odisha", "district": "Jagatsinghpur", "type": "port", "lat": 20.3165, "lng": 86.6114, "aliases": ["Paradeep Port"], "is_major_hub": true},

    {"name": "Solapur", "state": "Maharashtra", "district": "Solapur", "type": "city", "lat": 17.6599, "lng": 75.9064, "aliases": ["Sholapur"], "is_major_hub": false},
    {"name": "Kolhapur", "state": "Maharashtra", "district": "Kolhapur", "type": "city", "lat": 16.705, "lng": 74.2433, "aliases": [], "is_major_hub": false},
    {"name": "Sangli", "state": "Maharashtra", "district": "Sangli", "type": "city", "lat": 16.8524, "lng": 74.5815, "aliases": [], "is_major_hub": false},
    {"name": "Jalgaon", "state": "Maharashtra", "district": "Jalgaon", "type": "city", "lat": 21.0077, "lng": 75.5626, "aliases": [], "is_major_hub": false},
    {"name": "Akola", "state": "Maharashtra", "district": "Akola", "type": "city", "lat": 20.7002, "lng": 77.0082, "aliases": [], "is_major_hub": false},
    {"name": "Latur", "state": "Maharashtra", "district": "Latur", "type": "city", "lat": 18.3968, "lng": 76.5604, "aliases": [], "is_major_hub": false},
    {"name": "Ahmednagar", "state": "Maharashtra", "district": "Ahmednagar", "type": "city", "lat": 19.0948, "lng": 74.7480, "aliases": [], "is_major_hub": false},
    {"name": "Dhule", "state": "Maharashtra", "district": "Dhule", "type": "city", "lat": 20.9042, "lng": 74.7749, "aliases": [], "is_major_hub": false},
    {"name": "Ratnagiri", "state": "Maharashtra", "district": "Ratnagiri", "type": "town", "lat": 16.9944, "lng": 73.3, "aliases": [], "is_major_hub": false},
    {"name": "Satara", "state": "Maharashtra", "district": "Satara", "type": "town", "lat": 17.6805, "lng": 74.0183, "aliases": [], "is_major_hub": false},
    {"name": "Chandrapur", "state": "Maharashtra", "district": "Chandrapur", "type": "town", "lat": 19.9615, "lng": 79.2961, "aliases": [], "is_major_hub": false},
    {"name": "Palghar", "state": "Maharashtra", "district": "Palghar", "type": "town", "lat": 19.6968, "lng": 72.7651, "aliases": [], "is_major_hub": false},
    {"name": "Bhiwandi", "state": "Maharashtra", "district": "Thane", "type": "transport_hub", "lat": 19.2813, "lng": 73.0483, "aliases": [], "is_major_hub": true},
    {"name": "Talegaon", "state": "Maharashtra", "district": "Pune", "type": "industrial_zone", "lat": 18.7347, "lng": 73.6756, "aliases": ["Talegaon Dabhade"], "is_major_hub": false},
    {"name": "Chakan", "state": "Maharashtra", "district": "Pune", "type": "industrial_zone", "lat": 18.7604, "lng": 73.8631, "aliases": [], "is_major_hub": false},

    {"name": "Gandhinagar", "state": "Gujarat", "district": "Gandhinagar", "type": "city", "lat": 23.2156, "lng": 72.6369, "aliases": [], "is_major_hub": false},
    {"name": "Bhavnagar", "state": "Gujarat", "district": "Bhavnagar", "type": "city", "lat": 21.7645, "lng": 72.1519, "aliases": [], "is_major_hub": false},
    {"name": "Jamnagar", "state": "Gujarat", "district": "Jamnagar", "type": "city", "lat": 22.4707, "lng": 70.0577, "aliases": [], "is_major_hub": false},
    {"name": "Junagadh", "state": "Gujarat", "district": "Junagadh", "type": "city", "lat": 21.5222, "lng": 70.4579, "aliases": [], "is_major_hub": false},
    {"name": "Gandhidham", "state": "Gujarat", "district": "Kutch", "type": "city", "lat": 23.0753, "lng": 70.1337, "aliases": [], "is_major_hub": true},
    {"name": "Anand", "state": "Gujarat", "district": "Anand", "type": "city", "lat": 22.5645, "lng": 72.928, "aliases": [], "is_major_hub": false},
    {"name": "Bharuch", "state": "Gujarat", "district": "Bharuch", "type": "city", "lat": 21.6943, "lng": 72.9957, "aliases": ["Broach"], "is_major_hub": false},
    {"name": "Navsari", "state": "Gujarat", "district": "Navsari", "type": "town", "lat": 20.9467, "lng": 72.952, "aliases": [], "is_major_hub": false},
    {"name": "Morbi", "state": "Gujarat", "district": "Morbi", "type": "city", "lat": 22.8173, "lng": 70.8370, "aliases": [], "is_major_hub": false},
    {"name": "Mehsana", "state": "Gujarat", "district": "Mehsana", "type": "town", "lat": 23.5880, "lng": 72.3693, "aliases": [], "is_major_hub": false},
    {"name": "Vapi", "state": "Gujarat", "district": "Valsad", "type": "industrial_zone", "lat": 20.3893, "lng": 72.9106, "aliases": [], "is_major_hub": false},
    {"name": "Ankleshwar", "state": "Gujarat", "district": "Bharuch", "type": "industrial_zone", "lat": 21.6264, "lng": 73.0153, "aliases": [], "is_major_hub": false},
    {"name": "Hazira", "state": "Gujarat", "district": "Surat", "type": "port", "lat": 21.1, "lng": 72.63, "aliases": ["Hazira Port"], "is_major_hub": false},
    {"name": "Mundra Port", "state": "Gujarat", "district": "Kutch", "type": "port", "lat": 22.8394, "lng": 69.7214, "aliases": ["Adani Port"], "is_major_hub": true},
    {"name": "Kandla Port", "state": "Gujarat", "district": "Kutch", "type": "port", "lat": 23.0333, "lng": 70.2167, "aliases": ["Deendayal Port"], "is_major_hub": true},
    {"name": "Dahej", "state": "Gujarat", "district": "Bharuch", "type": "port", "lat": 21.7083, "lng": 72.5833, "aliases": [], "is_major_hub": false},
    {"name": "Sanand", "state": "Gujarat", "district": "Ahmedabad", "type": "industrial_zone", "lat": 22.9912, "lng": 72.3818, "aliases": [], "is_major_hub": false},

    {"name": "Sagar", "state": "Madhya Pradesh", "district": "Sagar", "type": "city", "lat": 23.8388, "lng": 78.7378, "aliases": [], "is_major_hub": false},
    {"name": "Ujjain", "state": "Madhya Pradesh", "district": "Ujjain", "type": "city", "lat": 23.1765, "lng": 75.7885, "aliases": [], "is_major_hub": false},
    {"name": "Dewas", "state": "Madhya Pradesh", "district": "Dewas", "type": "city", "lat": 22.9623, "lng": 76.0508, "aliases": [], "is_major_hub": false},
    {"name": "Satna", "state": "Madhya Pradesh", "district": "Satna", "type": "city", "lat": 24.5004, "lng": 80.8322, "aliases": [], "is_major_hub": false},
    {"name": "Rewa", "state": "Madhya Pradesh", "district": "Rewa", "type": "city", "lat": 24.5362, "lng": 81.2985, "aliases": [], "is_major_hub": false},
    {"name": "Ratlam", "state": "Madhya Pradesh", "district": "Ratlam", "type": "town", "lat": 23.3315, "lng": 75.0367, "aliases": [], "is_major_hub": false},
    {"name": "Katni", "state": "Madhya Pradesh", "district": "Katni", "type": "town", "lat": 23.8344, "lng": 80.3933, "aliases": [], "is_major_hub": false},
    {"name": "Singrauli", "state": "Madhya Pradesh", "district": "Singrauli", "type": "town", "lat": 24.1996, "lng": 82.6746, "aliases": [], "is_major_hub": false},
    {"name": "Pithampur", "state": "Madhya Pradesh", "district": "Dhar", "type": "industrial_zone", "lat": 22.6088, "lng": 75.6942, "aliases": [], "is_major_hub": false},
    {"name": "Mandideep", "state": "Madhya Pradesh", "district": "Raisen", "type": "industrial_zone", "lat": 23.0833, "lng": 77.5167, "aliases": [], "is_major_hub": false},

    {"name": "Bilaspur", "state": "Chhattisgarh", "district": "Bilaspur", "type": "city", "lat": 22.0797, "lng": 82.1409, "aliases": [], "is_major_hub": false},
    {"name": "Durg", "state": "Chhattisgarh", "district": "Durg", "type": "city", "lat": 21.1904, "lng": 81.2849, "aliases": [], "is_major_hub": false},
    {"name": "Bhilai", "state": "Chhattisgarh", "district": "Durg", "type": "city", "lat": 21.2094, "lng": 81.3784, "aliases": ["Bhilai Nagar"], "is_major_hub": true},
    {"name": "Korba", "state": "Chhattisgarh", "district": "Korba", "type": "city", "lat": 22.3595, "lng": 82.7501, "aliases": [], "is_major_hub": false},
    {"name": "Rajnandgaon", "state": "Chhattisgarh", "district": "Rajnandgaon", "type": "town", "lat": 21.0974, "lng": 81.0289, "aliases": [], "is_major_hub": false},
    {"name": "Jagdalpur", "state": "Chhattisgarh", "district": "Bastar", "type": "town", "lat": 19.0786, "lng": 82.0217, "aliases": [], "is_major_hub": false},

    {"name": "Mangaluru", "state": "Karnataka", "district": "Dakshina Kannada", "type": "city", "lat": 12.9141, "lng": 74.856, "aliases": ["Mangalore"], "is_major_hub": true},
    {"name": "Belgaum", "state": "Karnataka", "district": "Belgaum", "type": "city", "lat": 15.8497, "lng": 74.4977, "aliases": ["Belagavi"], "is_major_hub": false},
    {"name": "Gulbarga", "state": "Karnataka", "district": "Kalaburagi", "type": "city", "lat": 17.3297, "lng": 76.8343, "aliases": ["Kalaburagi"], "is_major_hub": false},
    {"name": "Davangere", "state": "Karnataka", "district": "Davangere", "type": "city", "lat": 14.4644, "lng": 75.9218, "aliases": [], "is_major_hub": false},
    {"name": "Bellary", "state": "Karnataka", "district": "Bellary", "type": "city", "lat": 15.1394, "lng": 76.9214, "aliases": ["Ballari"], "is_major_hub": false},
    {"name": "Shimoga", "state": "Karnataka", "district": "Shimoga", "type": "city", "lat": 13.9299, "lng": 75.5681, "aliases": ["Shivamogga"], "is_major_hub": false},
    {"name": "Tumkur", "state": "Karnataka", "district": "Tumkur", "type": "city", "lat": 13.3379, "lng": 77.1173, "aliases": ["Tumakuru"], "is_major_hub": false},
    {"name": "Raichur", "state": "Karnataka", "district": "Raichur", "type": "town", "lat": 16.2076, "lng": 77.3463, "aliases": [], "is_major_hub": false},
    {"name": "Bidar", "state": "Karnataka", "district": "Bidar", "type": "town", "lat": 17.9104, "lng": 77.5199, "aliases": [], "is_major_hub": false},
    {"name": "Hassan", "state": "Karnataka", "district": "Hassan", "type": "town", "lat": 13.0072, "lng": 76.0962, "aliases": [], "is_major_hub": false},
    {"name": "New Mangalore Port", "state": "Karnataka", "district": "Dakshina Kannada", "type": "port", "lat": 12.9236, "lng": 74.8097, "aliases": ["NMPT"], "is_major_hub": true},

    {"name": "Tiruppur", "state": "Tamil Nadu", "district": "Tiruppur", "type": "city", "lat": 11.1085, "lng": 77.3411, "aliases": ["Tirupur"], "is_major_hub": true},
    {"name": "Erode", "state": "Tamil Nadu", "district": "Erode", "type": "city", "lat": 11.341, "lng": 77.7172, "aliases": [], "is_major_hub": false},
    {"name": "Tirunelveli", "state": "Tamil Nadu", "district": "Tirunelveli", "type": "city", "lat": 8.7139, "lng": 77.7567, "aliases": ["Nellai"], "is_major_hub": false},
    {"name": "Vellore", "state": "Tamil Nadu", "district": "Vellore", "type": "city", "lat": 12.9165, "lng": 79.1325, "aliases": [], "is_major_hub": false},
    {"name": "Thoothukudi", "state": "Tamil Nadu", "district": "Thoothukudi", "type": "city", "lat": 8.7642, "lng": 78.1348, "aliases": ["Tuticorin"], "is_major_hub": true},
    {"name": "Dindigul", "state": "Tamil Nadu", "district": "Dindigul", "type": "city", "lat": 10.3624, "lng": 77.9695, "aliases": [], "is_major_hub": false},
    {"name": "Thanjavur", "state": "Tamil Nadu", "district": "Thanjavur", "type": "city", "lat": 10.787, "lng": 79.1378, "aliases": ["Tanjore"], "is_major_hub": false},
    {"name": "Hosur", "state": "Tamil Nadu", "district": "Krishnagiri", "type": "industrial_zone", "lat": 12.7409, "lng": 77.8253, "aliases": [], "is_major_hub": false},
    {"name": "Sriperumbudur", "state": "Tamil Nadu", "district": "Kancheepuram", "type": "industrial_zone", "lat": 12.9672, "lng": 79.9419, "aliases": [], "is_major_hub": false},
    {"name": "Ennore Port", "state": "Tamil Nadu", "district": "Tiruvallur", "type": "port", "lat": 13.2167, "lng": 80.3167, "aliases": ["Kamarajar Port"], "is_major_hub": true},

    {"name": "Kozhikode", "state": "Kerala", "district": "Kozhikode", "type": "city", "lat": 11.2588, "lng": 75.7804, "aliases": ["Calicut"], "is_major_hub": false},
    {"name": "Thrissur", "state": "Kerala", "district": "Thrissur", "type": "city", "lat": 10.5276, "lng": 76.2144, "aliases": ["Trichur"], "is_major_hub": false},
    {"name": "Kollam", "state": "Kerala", "district": "Kollam", "type": "city", "lat": 8.8932, "lng": 76.6141, "aliases": ["Quilon"], "is_major_hub": false},
    {"name": "Kannur", "state": "Kerala", "district": "Kannur", "type": "city", "lat": 11.8745, "lng": 75.3704, "aliases": ["Cannanore"], "is_major_hub": false},
    {"name": "Palakkad", "state": "Kerala", "district": "Palakkad", "type": "city", "lat": 10.7867, "lng": 76.6548, "aliases": ["Palghat"], "is_major_hub": false},
    {"name": "Alappuzha", "state": "Kerala", "district": "Alappuzha", "type": "city", "lat": 9.4981, "lng": 76.3388, "aliases": ["Alleppey"], "is_major_hub": false},
    {"name": "Kottayam", "state": "Kerala", "district": "Kottayam", "type": "city", "lat": 9.5916, "lng": 76.5222, "aliases": [], "is_major_hub": false},
    {"name": "Cochin Port", "state": "Kerala", "district": "Ernakulam", "type": "port", "lat": 9.9667, "lng": 76.2667, "aliases": ["Kochi Port"], "is_major_hub": true},

    {"name": "Guntur", "state": "Andhra Pradesh", "district": "Guntur", "type": "city", "lat": 16.3067, "lng": 80.4365, "aliases": [], "is_major_hub": false},
    {"name": "Nellore", "state": "Andhra Pradesh", "district": "Nellore", "type": "city", "lat": 14.4426, "lng": 79.9865, "aliases": [], "is_major_hub": false},
    {"name": "Kurnool", "state": "Andhra Pradesh", "district": "Kurnool", "type": "city", "lat": 15.8281, "lng": 78.0373, "aliases": [], "is_major_hub": false},
    {"name": "Rajahmundry", "state": "Andhra Pradesh", "district": "East Godavari", "type": "city", "lat": 17.0005, "lng": 81.8040, "aliases": ["Rajamahendravaram"], "is_major_hub": false},
    {"name": "Tirupati", "state": "Andhra Pradesh", "district": "Tirupati", "type": "city", "lat": 13.6288, "lng": 79.4192, "aliases": [], "is_major_hub": false},
    {"name": "Kakinada", "state": "Andhra Pradesh", "district": "East Godavari", "type": "city", "lat": 16.9891, "lng": 82.2475, "aliases": [], "is_major_hub": false},
    {"name": "Anantapur", "state": "Andhra Pradesh", "district": "Anantapur", "type": "city", "lat": 14.6819, "lng": 77.6006, "aliases": [], "is_major_hub": false},
    {"name": "Eluru", "state": "Andhra Pradesh", "district": "West Godavari", "type": "town", "lat": 16.7107, "lng": 81.0952, "aliases": [], "is_major_hub": false},
    {"name": "Ongole", "state": "Andhra Pradesh", "district": "Prakasam", "type": "town", "lat": 15.5057, "lng": 80.0499, "aliases": [], "is_major_hub": false},
    {"name": "Krishnapatnam Port", "state": "Andhra Pradesh", "district": "Nellore", "type": "port", "lat": 14.2667, "lng": 80.1167, "aliases": [], "is_major_hub": true},
    {"name": "Amaravati", "state": "Andhra Pradesh", "district": "Guntur", "type": "city", "lat": 16.5131, "lng": 80.5167, "aliases": [], "is_major_hub": false},

    {"name": "Karimnagar", "state": "Telangana", "district": "Karimnagar", "type": "city", "lat": 18.4386, "lng": 79.1288, "aliases": [], "is_major_hub": false},
    {"name": "Nizamabad", "state": "Telangana", "district": "Nizamabad", "type": "city", "lat": 18.6725, "lng": 78.0941, "aliases": [], "is_major_hub": false},
    {"name": "Khammam", "state": "Telangana", "district": "Khammam", "type": "city", "lat": 17.2473, "lng": 80.1514, "aliases": [], "is_major_hub": false},
    {"name": "Mahbubnagar", "state": "Telangana", "district": "Mahbubnagar", "type": "city", "lat": 16.7488, "lng": 78.0035, "aliases": [], "is_major_hub": false},
    {"name": "Nalgonda", "state": "Telangana", "district": "Nalgonda", "type": "town", "lat": 17.0575, "lng": 79.2690, "aliases": [], "is_major_hub": false},
    {"name": "Siddipet", "state": "Telangana", "district": "Siddipet", "type": "town", "lat": 18.1019, "lng": 78.8520, "aliases": [], "is_major_hub": false},

    {"name": "Howrah", "state": "West Bengal", "district": "Howrah", "type": "city", "lat": 22.5958, "lng": 88.2636, "aliases": [], "is_major_hub": true},
    {"name": "Durgapur", "state": "West Bengal", "district": "Paschim Bardhaman", "type": "city", "lat": 23.5204, "lng": 87.3119, "aliases": [], "is_major_hub": false},
    {"name": "Asansol", "state": "West Bengal", "district": "Paschim Bardhaman", "type": "city", "lat": 23.6739, "lng": 86.9524, "aliases": [], "is_major_hub": false},
    {"name": "Siliguri", "state": "West Bengal", "district": "Darjeeling", "type": "city", "lat": 26.7271, "lng": 88.3953, "aliases": [], "is_major_hub": true},
    {"name": "Bardhaman", "state": "West Bengal", "district": "Purba Bardhaman", "type": "city", "lat": 23.2324, "lng": 87.8615, "aliases": ["Burdwan"], "is_major_hub": false},
    {"name": "Kharagpur", "state": "West Bengal", "district": "Paschim Medinipur", "type": "town", "lat": 22.346, "lng": 87.232, "aliases": [], "is_major_hub": false},
    {"name": "Haldia", "state": "West Bengal", "district": "Purba Medinipur", "type": "port", "lat": 22.0667, "lng": 88.0667, "aliases": ["Haldia Port"], "is_major_hub": true},
    {"name": "Kolkata Port", "state": "West Bengal", "district": "Kolkata", "type": "port", "lat": 22.5497, "lng": 88.3125, "aliases": ["Syama Prasad Mookerjee Port"], "is_major_hub": true},
    {"name": "Malda", "state": "West Bengal", "district": "Malda", "type": "town", "lat": 25.0108, "lng": 88.1411, "aliases": ["English Bazar"], "is_major_hub": false},
    {"name": "Kalyani", "state": "West Bengal", "district": "Nadia", "type": "town", "lat": 22.975, "lng": 88.4345, "aliases": [], "is_major_hub": false},

    {"name": "Dibrugarh", "state": "Assam", "district": "Dibrugarh", "type": "city", "lat": 27.4728, "lng": 94.9120, "aliases": [], "is_major_hub": false},
    {"name": "Jorhat", "state": "Assam", "district": "Jorhat", "type": "city", "lat": 26.7509, "lng": 94.2037, "aliases": [], "is_major_hub": false},
    {"name": "Silchar", "state": "Assam", "district": "Cachar", "type": "city", "lat": 24.8333, "lng": 92.7789, "aliases": [], "is_major_hub": false},
    {"name": "Nagaon", "state": "Assam", "district": "Nagaon", "type": "town", "lat": 26.3464, "lng": 92.6840, "aliases": ["Nowgong"], "is_major_hub": false},
    {"name": "Tezpur", "state": "Assam", "district": "Sonitpur", "type": "town", "lat": 26.6338, "lng": 92.8, "aliases": [], "is_major_hub": false},
    {"name": "Tinsukia", "state": "Assam", "district": "Tinsukia", "type": "town", "lat": 27.4922, "lng": 95.3547, "aliases": [], "is_major_hub": false},

    {"name": "Imphal", "state": "Manipur", "district": "Imphal West", "type": "city", "lat": 24.817, "lng": 93.9368, "aliases": [], "is_major_hub": false},
    {"name": "Shillong", "state": "Meghalaya", "district": "East Khasi Hills", "type": "city", "lat": 25.5788, "lng": 91.8933, "aliases": [], "is_major_hub": false},
    {"name": "Agartala", "state": "Tripura", "district": "West Tripura", "type": "city", "lat": 23.8315, "lng": 91.2868, "aliases": [], "is_major_hub": false},
    {"name": "Aizawl", "state": "Mizoram", "district": "Aizawl", "type": "city", "lat": 23.7271, "lng": 92.7176, "aliases": [], "is_major_hub": false},
    {"name": "Kohima", "state": "Nagaland", "district": "Kohima", "type": "city", "lat": 25.6751, "lng": 94.1086, "aliases": [], "is_major_hub": false},
    {"name": "Dimapur", "state": "Nagaland", "district": "Dimapur", "type": "city", "lat": 25.9, "lng": 93.7333, "aliases": [], "is_major_hub": false},
    {"name": "Itanagar", "state": "Arunachal Pradesh", "district": "Papum Pare", "type": "city", "lat": 27.0844, "lng": 93.6053, "aliases": [], "is_major_hub": false},
    {"name": "Gangtok", "state": "Sikkim", "district": "East Sikkim", "type": "city", "lat": 27.3389, "lng": 88.6065, "aliases": [], "is_major_hub": false},

    {"name": "Haridwar", "state": "Uttarakhand", "district": "Haridwar", "type": "city", "lat": 29.9457, "lng": 78.1642, "aliases": ["Hardwar"], "is_major_hub": false},
    {"name": "Haldwani", "state": "Uttarakhand", "district": "Nainital", "type": "city", "lat": 29.2183, "lng": 79.5130, "aliases": [], "is_major_hub": false},
    {"name": "Roorkee", "state": "Uttarakhand", "district": "Haridwar", "type": "city", "lat": 29.8543, "lng": 77.888, "aliases": [], "is_major_hub": false},
    {"name": "Kashipur", "state": "Uttarakhand", "district": "Udham Singh Nagar", "type": "town", "lat": 29.2104, "lng": 78.9619, "aliases": [], "is_major_hub": false},
    {"name": "Rudrapur", "state": "Uttarakhand", "district": "Udham Singh Nagar", "type": "town", "lat": 28.9739, "lng": 79.4049, "aliases": [], "is_major_hub": false},
    {"name": "Rishikesh", "state": "Uttarakhand", "district": "Dehradun", "type": "town", "lat": 30.0869, "lng": 78.2676, "aliases": [], "is_major_hub": false},
    {"name": "Pantnagar", "state": "Uttarakhand", "district": "Udham Singh Nagar", "type": "industrial_zone", "lat": 29.0333, "lng": 79.4667, "aliases": ["SIDCUL Pantnagar"], "is_major_hub": false},

    {"name": "Shimla", "state": "Himachal Pradesh", "district": "Shimla", "type": "city", "lat": 31.1048, "lng": 77.1734, "aliases": ["Simla"], "is_major_hub": false},
    {"name": "Solan", "state": "Himachal Pradesh", "district": "Solan", "type": "town", "lat": 30.9045, "lng": 77.0967, "aliases": [], "is_major_hub": false},
    {"name": "Mandi", "state": "Himachal Pradesh", "district": "Mandi", "type": "town", "lat": 31.7088, "lng": 76.9318, "aliases": [], "is_major_hub": false},
    {"name": "Baddi", "state": "Himachal Pradesh", "district": "Solan", "type": "industrial_zone", "lat": 30.9578, "lng": 76.7914, "aliases": [], "is_major_hub": false},
    {"name": "Parwanoo", "state": "Himachal Pradesh", "district": "Solan", "type": "industrial_zone", "lat": 30.8372, "lng": 76.9614, "aliases": [], "is_major_hub": false},

    {"name": "Jammu", "state": "Jammu & Kashmir", "district": "Jammu", "type": "city", "lat": 32.7266, "lng": 74.857, "aliases": [], "is_major_hub": true},
    {"name": "Srinagar", "state": "Jammu & Kashmir", "district": "Srinagar", "type": "city", "lat": 34.0837, "lng": 74.7973, "aliases": [], "is_major_hub": false},
    {"name": "Anantnag", "state": "Jammu & Kashmir", "district": "Anantnag", "type": "town", "lat": 33.7311, "lng": 75.1547, "aliases": [], "is_major_hub": false},
    {"name": "Leh", "state": "Ladakh", "district": "Leh", "type": "city", "lat": 34.1526, "lng": 77.5771, "aliases": [], "is_major_hub": false},

    {"name": "Panaji", "state": "Goa", "district": "North Goa", "type": "city", "lat": 15.4909, "lng": 73.8278, "aliases": ["Panjim"], "is_major_hub": false},
    {"name": "Margao", "state": "Goa", "district": "South Goa", "type": "city", "lat": 15.2832, "lng": 73.9862, "aliases": ["Madgaon"], "is_major_hub": false},
    {"name": "Vasco da Gama", "state": "Goa", "district": "South Goa", "type": "city", "lat": 15.3982, "lng": 73.8113, "aliases": ["Vasco"], "is_major_hub": false},
    {"name": "Mormugao Port", "state": "Goa", "district": "South Goa", "type": "port", "lat": 15.4089, "lng": 73.7967, "aliases": [], "is_major_hub": true},

    {"name": "Silvassa", "state": "Dadra & Nagar Haveli", "district": null, "type": "city", "lat": 20.2766, "lng": 73.0169, "aliases": [], "is_major_hub": false},
    {"name": "Daman", "state": "Daman & Diu", "district": null, "type": "city", "lat": 20.3974, "lng": 72.8328, "aliases": [], "is_major_hub": false},
    {"name": "Puducherry", "state": "Puducherry", "district": null, "type": "city", "lat": 11.9416, "lng": 79.8083, "aliases": ["Pondicherry"], "is_major_hub": false},
    {"name": "Port Blair", "state": "Andaman & Nicobar", "district": null, "type": "city", "lat": 11.6234, "lng": 92.7265, "aliases": [], "is_major_hub": false},

    {"name": "Bellary", "state": "Karnataka", "district": "Bellary", "type": "mandi", "lat": 15.1394, "lng": 76.9214, "aliases": ["Ballari Mandi"], "is_major_hub": false},
    {"name": "Azadpur Mandi", "state": "Delhi", "district": null, "type": "mandi", "lat": 28.7134, "lng": 77.1748, "aliases": ["Azadpur"], "is_major_hub": true},
    {"name": "Vashi APMC", "state": "Maharashtra", "district": "Thane", "type": "mandi", "lat": 19.0728, "lng": 73.0, "aliases": ["Vashi Market"], "is_major_hub": true},
    {"name": "Lasalgaon", "state": "Maharashtra", "district": "Nashik", "type": "mandi", "lat": 20.1434, "lng": 74.2344, "aliases": [], "is_major_hub": false},
    {"name": "Unjha", "state": "Gujarat", "district": "Mehsana", "type": "mandi", "lat": 23.8, "lng": 72.4, "aliases": ["Unjha APMC"], "is_major_hub": false},
    {"name": "Rajkot Mandi", "state": "Gujarat", "district": "Rajkot", "type": "mandi", "lat": 22.3039, "lng": 70.8022, "aliases": [], "is_major_hub": false},
    {"name": "Kurnool Mandi", "state": "Andhra Pradesh", "district": "Kurnool", "type": "mandi", "lat": 15.8281, "lng": 78.0373, "aliases": [], "is_major_hub": false},
    {"name": "Davangere Mandi", "state": "Karnataka", "district": "Davangere", "type": "mandi", "lat": 14.4644, "lng": 75.9218, "aliases": [], "is_major_hub": false},
    {"name": "Indore Mandi", "state": "Madhya Pradesh", "district": "Indore", "type": "mandi", "lat": 22.7196, "lng": 75.8577, "aliases": [], "is_major_hub": false},
    {"name": "Karnal Mandi", "state": "Haryana", "district": "Karnal", "type": "mandi", "lat": 29.6857, "lng": 76.9905, "aliases": [], "is_major_hub": false},
    {"name": "Hapur Mandi", "state": "Uttar Pradesh", "district": "Hapur", "type": "mandi", "lat": 28.7307, "lng": 77.7759, "aliases": [], "is_major_hub": false},
    {"name": "Muzaffarnagar Mandi", "state": "Uttar Pradesh", "district": "Muzaffarnagar", "type": "mandi", "lat": 29.4727, "lng": 77.7085, "aliases": [], "is_major_hub": false},
    {"name": "Khanna Mandi", "state": "Punjab", "district": "Ludhiana", "type": "mandi", "lat": 30.6968, "lng": 76.2174, "aliases": [], "is_major_hub": false},
    {"name": "Rajpura Mandi", "state": "Punjab", "district": "Patiala", "type": "mandi", "lat": 30.4839, "lng": 76.5933, "aliases": [], "is_major_hub": false},

    {"name": "JNPT", "state": "Maharashtra", "district": "Raigad", "type": "port", "lat": 18.9543, "lng": 72.9479, "aliases": ["Nhava Sheva", "Jawaharlal Nehru Port"], "is_major_hub": true},
    {"name": "Chennai Port", "state": "Tamil Nadu", "district": "Chennai", "type": "port", "lat": 13.0975, "lng": 80.2939, "aliases": [], "is_major_hub": true},
    {"name": "Visakhapatnam Port", "state": "Andhra Pradesh", "district": "Visakhapatnam", "type": "port", "lat": 17.6868, "lng": 83.2185, "aliases": ["Vizag Port"], "is_major_hub": true},
    {"name": "Tuticorin Port", "state": "Tamil Nadu", "district": "Thoothukudi", "type": "port", "lat": 8.7642, "lng": 78.1348, "aliases": ["V.O. Chidambaranar Port"], "is_major_hub": true},

    {"name": "ICD Tughlakabad", "state": "Delhi", "district": null, "type": "dry_port", "lat": 28.5, "lng": 77.28, "aliases": ["Tughlakabad ICD"], "is_major_hub": true},
    {"name": "ICD Dadri", "state": "Uttar Pradesh", "district": "Gautam Buddh Nagar", "type": "dry_port", "lat": 28.5667, "lng": 77.5667, "aliases": ["Dadri ICD"], "is_major_hub": true},
    {"name": "ICD Whitefield", "state": "Karnataka", "district": "Bengaluru Urban", "type": "dry_port", "lat": 12.9698, "lng": 77.7500, "aliases": ["Whitefield ICD"], "is_major_hub": false},
    {"name": "ICD Sabarmati", "state": "Gujarat", "district": "Ahmedabad", "type": "dry_port", "lat": 23.0667, "lng": 72.6, "aliases": ["Sabarmati ICD"], "is_major_hub": false},
    {"name": "ICD Nagpur", "state": "Maharashtra", "district": "Nagpur", "type": "dry_port", "lat": 21.1458, "lng": 79.0882, "aliases": [], "is_major_hub": false},

    {"name": "Bellampalli", "state": "Telangana", "district": "Mancherial", "type": "town", "lat": 19.0558, "lng": 79.4933, "aliases": [], "is_major_hub": false},
    {"name": "Nanded", "state": "Maharashtra", "district": "Nanded", "type": "city", "lat": 19.1383, "lng": 77.3210, "aliases": [], "is_major_hub": false},
    {"name": "Parbhani", "state": "Maharashtra", "district": "Parbhani", "type": "city", "lat": 19.2610, "lng": 76.7748, "aliases": [], "is_major_hub": false},
    {"name": "Hingoli", "state": "Maharashtra", "district": "Hingoli", "type": "town", "lat": 19.7173, "lng": 77.1517, "aliases": [], "is_major_hub": false},
    {"name": "Osmanabad", "state": "Maharashtra", "district": "Osmanabad", "type": "town", "lat": 18.1860, "lng": 76.0440, "aliases": ["Dharashiv"], "is_major_hub": false},
    {"name": "Beed", "state": "Maharashtra", "district": "Beed", "type": "town", "lat": 18.9890, "lng": 75.7531, "aliases": [], "is_major_hub": false},
    {"name": "Wardha", "state": "Maharashtra", "district": "Wardha", "type": "town", "lat": 20.7453, "lng": 78.5997, "aliases": [], "is_major_hub": false},
    {"name": "Yavatmal", "state": "Maharashtra", "district": "Yavatmal", "type": "town", "lat": 20.3899, "lng": 78.1307, "aliases": [], "is_major_hub": false},
    {"name": "Amravati", "state": "Maharashtra", "district": "Amravati", "type": "city", "lat": 20.9374, "lng": 77.7796, "aliases": [], "is_major_hub": false},
    {"name": "Buldhana", "state": "Maharashtra", "district": "Buldhana", "type": "town", "lat": 20.5293, "lng": 76.1842, "aliases": [], "is_major_hub": false},
    {"name": "Washim", "state": "Maharashtra", "district": "Washim", "type": "town", "lat": 20.1120, "lng": 77.1330, "aliases": [], "is_major_hub": false},

    {"name": "Belgaum", "state": "Karnataka", "district": "Belgaum", "type": "mandi", "lat": 15.8497, "lng": 74.4977, "aliases": ["Belagavi Mandi"], "is_major_hub": false},
    {"name": "Hospet", "state": "Karnataka", "district": "Bellary", "type": "town", "lat": 15.2689, "lng": 76.3909, "aliases": ["Hosapete"], "is_major_hub": false},
    {"name": "Gadag", "state": "Karnataka", "district": "Gadag", "type": "town", "lat": 15.4166, "lng": 75.6355, "aliases": [], "is_major_hub": false},
    {"name": "Chitradurga", "state": "Karnataka", "district": "Chitradurga", "type": "town", "lat": 14.2226, "lng": 76.3984, "aliases": [], "is_major_hub": false},
    {"name": "Mandya", "state": "Karnataka", "district": "Mandya", "type": "town", "lat": 12.5218, "lng": 76.8951, "aliases": [], "is_major_hub": false},
    {"name": "Udupi", "state": "Karnataka", "district": "Udupi", "type": "town", "lat": 13.3409, "lng": 74.7421, "aliases": [], "is_major_hub": false},

    {"name": "Bhuj", "state": "Gujarat", "district": "Kutch", "type": "city", "lat": 23.2420, "lng": 69.6669, "aliases": [], "is_major_hub": false},
    {"name": "Surendranagar", "state": "Gujarat", "district": "Surendranagar", "type": "town", "lat": 22.7289, "lng": 71.6480, "aliases": [], "is_major_hub": false},
    {"name": "Palanpur", "state": "Gujarat", "district": "Banaskantha", "type": "town", "lat": 24.1725, "lng": 72.4384, "aliases": [], "is_major_hub": false},
    {"name": "Porbandar", "state": "Gujarat", "district": "Porbandar", "type": "town", "lat": 21.6417, "lng": 69.6293, "aliases": [], "is_major_hub": false},
    {"name": "Veraval", "state": "Gujarat", "district": "Gir Somnath", "type": "town", "lat": 20.9064, "lng": 70.3627, "aliases": [], "is_major_hub": false},
    {"name": "Gondal", "state": "Gujarat", "district": "Rajkot", "type": "mandi", "lat": 21.9610, "lng": 70.7953, "aliases": [], "is_major_hub": false},

    {"name": "Dhanbad", "state": "Jharkhand", "district": "Dhanbad", "type": "mandi", "lat": 23.7957, "lng": 86.4304, "aliases": ["Dhanbad Coal"], "is_major_hub": false},
    {"name": "Chaibasa", "state": "Jharkhand", "district": "West Singhbhum", "type": "town", "lat": 22.5513, "lng": 85.8028, "aliases": [], "is_major_hub": false},
    {"name": "Giridih", "state": "Jharkhand", "district": "Giridih", "type": "town", "lat": 24.1854, "lng": 86.3013, "aliases": [], "is_major_hub": false},

    {"name": "Sambalpur", "state": "Odisha", "district": "Sambalpur", "type": "mandi", "lat": 21.4669, "lng": 83.9812, "aliases": [], "is_major_hub": false},
    {"name": "Jharsuguda", "state": "Odisha", "district": "Jharsuguda", "type": "town", "lat": 21.8554, "lng": 84.0063, "aliases": [], "is_major_hub": false},
    {"name": "Angul", "state": "Odisha", "district": "Angul", "type": "town", "lat": 20.8400, "lng": 85.1000, "aliases": [], "is_major_hub": false},
    {"name": "Koraput", "state": "Odisha", "district": "Koraput", "type": "town", "lat": 18.8135, "lng": 82.7123, "aliases": [], "is_major_hub": false},
    {"name": "Puri", "state": "Odisha", "district": "Puri", "type": "city", "lat": 19.8135, "lng": 85.8312, "aliases": [], "is_major_hub": false},

    {"name": "Nagercoil", "state": "Tamil Nadu", "district": "Kanyakumari", "type": "city", "lat": 8.1833, "lng": 77.4119, "aliases": [], "is_major_hub": false},
    {"name": "Karur", "state": "Tamil Nadu", "district": "Karur", "type": "town", "lat": 10.9601, "lng": 78.0766, "aliases": [], "is_major_hub": false},
    {"name": "Namakkal", "state": "Tamil Nadu", "district": "Namakkal", "type": "town", "lat": 11.2189, "lng": 78.1674, "aliases": [], "is_major_hub": false},
    {"name": "Sivakasi", "state": "Tamil Nadu", "district": "Virudhunagar", "type": "town", "lat": 9.4533, "lng": 77.7981, "aliases": [], "is_major_hub": false},
    {"name": "Kumbakonam", "state": "Tamil Nadu", "district": "Thanjavur", "type": "town", "lat": 10.9617, "lng": 79.3881, "aliases": [], "is_major_hub": false},
    {"name": "Cuddalore", "state": "Tamil Nadu", "district": "Cuddalore", "type": "town", "lat": 11.7480, "lng": 79.7714, "aliases": [], "is_major_hub": false},
    {"name": "Pollachi", "state": "Tamil Nadu", "district": "Coimbatore", "type": "mandi", "lat": 10.6609, "lng": 77.0087, "aliases": [], "is_major_hub": false},

    {"name": "Bellary", "state": "Karnataka", "district": "Bellary", "type": "city", "lat": 15.1394, "lng": 76.9214, "aliases": ["Ballari"], "is_major_hub": false},
    {"name": "Koppal", "state": "Karnataka", "district": "Koppal", "type": "town", "lat": 15.3473, "lng": 76.1551, "aliases": [], "is_major_hub": false},
    {"name": "Bagalkot", "state": "Karnataka", "district": "Bagalkot", "type": "town", "lat": 16.1691, "lng": 75.6615, "aliases": [], "is_major_hub": false},
    {"name": "Chikkamagaluru", "state": "Karnataka", "district": "Chikkamagaluru", "type": "town", "lat": 13.3161, "lng": 75.7720, "aliases": ["Chikmagalur"], "is_major_hub": false},

    {"name": "Bhiwadi", "state": "Rajasthan", "district": "Alwar", "type": "industrial_zone", "lat": 28.2096, "lng": 76.8614, "aliases": [], "is_major_hub": false},
    {"name": "Neemrana", "state": "Rajasthan", "district": "Alwar", "type": "industrial_zone", "lat": 27.9861, "lng": 76.3844, "aliases": ["RIICO Neemrana"], "is_major_hub": false},
    {"name": "Sri City", "state": "Andhra Pradesh", "district": "Tirupati", "type": "industrial_zone", "lat": 13.5667, "lng": 80.0167, "aliases": [], "is_major_hub": false},
    {"name": "Visakhapatnam SEZ", "state": "Andhra Pradesh", "district": "Visakhapatnam", "type": "industrial_zone", "lat": 17.73, "lng": 83.30, "aliases": ["Vizag SEZ"], "is_major_hub": false},
    {"name": "Mahindra World City", "state": "Tamil Nadu", "district": "Kancheepuram", "type": "industrial_zone", "lat": 12.7333, "lng": 80.0167, "aliases": ["MWC Chennai"], "is_major_hub": false},
    {"name": "SIPCOT Oragadam", "state": "Tamil Nadu", "district": "Kancheepuram", "type": "industrial_zone", "lat": 12.7833, "lng": 79.9667, "aliases": ["Oragadam"], "is_major_hub": false},

    {"name": "Greater Noida", "state": "Uttar Pradesh", "district": "Gautam Buddh Nagar", "type": "city", "lat": 28.4744, "lng": 77.504, "aliases": [], "is_major_hub": false},
    {"name": "Hapur", "state": "Uttar Pradesh", "district": "Hapur", "type": "town", "lat": 28.7307, "lng": 77.7759, "aliases": [], "is_major_hub": false},
    {"name": "Bulandshahr", "state": "Uttar Pradesh", "district": "Bulandshahr", "type": "town", "lat": 28.4070, "lng": 77.8498, "aliases": [], "is_major_hub": false},
    {"name": "Rampur", "state": "Uttar Pradesh", "district": "Rampur", "type": "town", "lat": 28.7930, "lng": 79.0250, "aliases": [], "is_major_hub": false},
    {"name": "Unnao", "state": "Uttar Pradesh", "district": "Unnao", "type": "town", "lat": 26.5393, "lng": 80.4878, "aliases": [], "is_major_hub": false},
    {"name": "Rae Bareli", "state": "Uttar Pradesh", "district": "Rae Bareli", "type": "town", "lat": 26.2345, "lng": 81.2409, "aliases": [], "is_major_hub": false},
    {"name": "Fatehpur", "state": "Uttar Pradesh", "district": "Fatehpur", "type": "town", "lat": 25.9304, "lng": 80.8139, "aliases": [], "is_major_hub": false},
    {"name": "Banda", "state": "Uttar Pradesh", "district": "Banda", "type": "town", "lat": 25.4754, "lng": 80.3355, "aliases": [], "is_major_hub": false},
    {"name": "Orai", "state": "Uttar Pradesh", "district": "Jalaun", "type": "town", "lat": 25.9904, "lng": 79.4514, "aliases": [], "is_major_hub": false},
    {"name": "Lakhimpur Kheri", "state": "Uttar Pradesh", "district": "Lakhimpur Kheri", "type": "town", "lat": 27.9462, "lng": 80.7801, "aliases": [], "is_major_hub": false},
    {"name": "Sitapur", "state": "Uttar Pradesh", "district": "Sitapur", "type": "town", "lat": 27.5706, "lng": 80.6828, "aliases": [], "is_major_hub": false},
    {"name": "Hardoi", "state": "Uttar Pradesh", "district": "Hardoi", "type": "town", "lat": 27.3953, "lng": 80.1310, "aliases": [], "is_major_hub": false},
    {"name": "Bahraich", "state": "Uttar Pradesh", "district": "Bahraich", "type": "town", "lat": 27.5745, "lng": 81.5959, "aliases": [], "is_major_hub": false},
    {"name": "Gonda", "state": "Uttar Pradesh", "district": "Gonda", "type": "town", "lat": 27.1340, "lng": 81.9619, "aliases": [], "is_major_hub": false},
    {"name": "Basti", "state": "Uttar Pradesh", "district": "Basti", "type": "town", "lat": 26.7929, "lng": 82.7463, "aliases": [], "is_major_hub": false},
    {"name": "Deoria", "state": "Uttar Pradesh", "district": "Deoria", "type": "town", "lat": 26.5024, "lng": 83.7791, "aliases": [], "is_major_hub": false},
    {"name": "Azamgarh", "state": "Uttar Pradesh", "district": "Azamgarh", "type": "town", "lat": 26.0735, "lng": 83.1854, "aliases": [], "is_major_hub": false},
    {"name": "Jaunpur", "state": "Uttar Pradesh", "district": "Jaunpur", "type": "town", "lat": 25.7464, "lng": 82.6836, "aliases": [], "is_major_hub": false},
    {"name": "Ballia", "state": "Uttar Pradesh", "district": "Ballia", "type": "town", "lat": 25.7613, "lng": 84.1487, "aliases": [], "is_major_hub": false},
    {"name": "Mau", "state": "Uttar Pradesh", "district": "Mau", "type": "town", "lat": 25.9417, "lng": 83.5616, "aliases": [], "is_major_hub": false},

    {"name": "Dharmapuri", "state": "Tamil Nadu", "district": "Dharmapuri", "type": "town", "lat": 12.1211, "lng": 78.1582, "aliases": [], "is_major_hub": false},
    {"name": "Krishnagiri", "state": "Tamil Nadu", "district": "Krishnagiri", "type": "town", "lat": 12.5186, "lng": 78.2138, "aliases": [], "is_major_hub": false},
    {"name": "Ariyalur", "state": "Tamil Nadu", "district": "Ariyalur", "type": "town", "lat": 11.1401, "lng": 79.0756, "aliases": [], "is_major_hub": false},
    {"name": "Perambalur", "state": "Tamil Nadu", "district": "Perambalur", "type": "town", "lat": 11.2320, "lng": 78.8802, "aliases": [], "is_major_hub": false},
    {"name": "Ramanathapuram", "state": "Tamil Nadu", "district": "Ramanathapuram", "type": "town", "lat": 9.3639, "lng": 78.8395, "aliases": [], "is_major_hub": false},
    {"name": "Virudhunagar", "state": "Tamil Nadu", "district": "Virudhunagar", "type": "town", "lat": 9.5851, "lng": 77.9526, "aliases": [], "is_major_hub": false},
    {"name": "Theni", "state": "Tamil Nadu", "district": "Theni", "type": "town", "lat": 10.0104, "lng": 77.4768, "aliases": [], "is_major_hub": false},

    {"name": "Palwal", "state": "Haryana", "district": "Palwal", "type": "town", "lat": 28.1487, "lng": 77.3320, "aliases": [], "is_major_hub": false},
    {"name": "Narnaul", "state": "Haryana", "district": "Mahendragarh", "type": "town", "lat": 28.0444, "lng": 76.1084, "aliases": [], "is_major_hub": false},
    {"name": "Kaithal", "state": "Haryana", "district": "Kaithal", "type": "town", "lat": 29.8015, "lng": 76.3998, "aliases": [], "is_major_hub": false},
    {"name": "Kurukshetra", "state": "Haryana", "district": "Kurukshetra", "type": "town", "lat": 29.9695, "lng": 76.8783, "aliases": [], "is_major_hub": false},

    {"name": "Dharamshala", "state": "Himachal Pradesh", "district": "Kangra", "type": "town", "lat": 32.2190, "lng": 76.3234, "aliases": [], "is_major_hub": false},
    {"name": "Kullu", "state": "Himachal Pradesh", "district": "Kullu", "type": "town", "lat": 31.9579, "lng": 77.1095, "aliases": [], "is_major_hub": false},
    {"name": "Una", "state": "Himachal Pradesh", "district": "Una", "type": "town", "lat": 31.4685, "lng": 76.2708, "aliases": [], "is_major_hub": false},
    {"name": "Nalagarh", "state": "Himachal Pradesh", "district": "Solan", "type": "industrial_zone", "lat": 31.0417, "lng": 76.7250, "aliases": [], "is_major_hub": false},

    {"name": "Ernakulam", "state": "Kerala", "district": "Ernakulam", "type": "city", "lat": 9.9816, "lng": 76.2999, "aliases": [], "is_major_hub": false},
    {"name": "Malappuram", "state": "Kerala", "district": "Malappuram", "type": "city", "lat": 11.0510, "lng": 76.0711, "aliases": [], "is_major_hub": false},
    {"name": "Kasaragod", "state": "Kerala", "district": "Kasaragod", "type": "town", "lat": 12.4996, "lng": 74.9869, "aliases": [], "is_major_hub": false},
    {"name": "Wayanad", "state": "Kerala", "district": "Wayanad", "type": "town", "lat": 11.6854, "lng": 76.1320, "aliases": ["Kalpetta"], "is_major_hub": false},
    {"name": "Idukki", "state": "Kerala", "district": "Idukki", "type": "town", "lat": 9.8494, "lng": 76.9720, "aliases": [], "is_major_hub": false},
    {"name": "Pathanamthitta", "state": "Kerala", "district": "Pathanamthitta", "type": "town", "lat": 9.2648, "lng": 76.7870, "aliases": [], "is_major_hub": false}
  ]
}
